{"type":"FeatureCollection","features":[
{"type":"Feature","geometry":{"type":"Point","coordinates":[-71.1053991,42.3504997,0]},"properties":{"name":"Boston University","description":"Schedule a visit: :http://www.bu.edu/admissions/visit-us/schedule-your-visit/","Size":"L","Region":"New England"}},
{"type":"Feature","geometry":{"type":"Point","coordinates":[-71.1684945,42.3355488,0]},"properties":{"name":"Boston College","description":"Schedule a visit: http://www.bc.edu/admission/undergrad/visits.html","Size":"M","Region":"New England"}},
{"type":"Feature","geometry":{"type":"Point","coordinates":[-71.2658,42.2999208,0]},"properties":{"name":"Babson College","description":"Schedule a visit: http://www.babson.edu/admission/undergraduate/tours-events/Pages/home.aspx","Size":"S","Region":"New England"}},
{"type":"Feature","geometry":{"type":"Point","coordinates":[-71.1166601,42.3770029,0]},"properties":{"name":"Harvard University","description":"Schedule a visit: https://college.harvard.edu/admissions/visit","Size":"L","Region":"New England"}},
{"type":"Feature","geometry":{"type":"Point","coordinates":[-71.09416,42.360091,0]},"properties":{"name":"MIT","description":"Schedule a visit: https://institute-events.mit.edu/visit/tours","Size":"M","Region":"New England"}},
{"type":"Feature","geometry":{"type":"Point","coordinates":[-71.0891717,42.3398067,0]},"properties":{"name":"Northeastern University","description":"Schedule a visit: https://www.northeastern.edu/admissions/connect/visit/ ","Size":"L","Region":"New England"}},
{"type":"Feature","geometry":{"type":"Point","coordinates":[-71.307617,42.29359,0]},"properties":{"name":"Wellesley College","description":"","Size":"S","Region":"New England"}},
{"type":"Feature","geometry":{"type":"Point","coordinates":[-71.1190232,42.4074843,0]},"properties":{"name":"Tufts University","description":"Schedule a visit: http://admissions.tufts.edu/visit/plan-your-visit/","Size":"M","Region":"New England"}},
{"type":"Feature","geometry":{"type":"Point","coordinates":[-71.258548,42.3662392,0]},"properties":{"name":"Brandeis University","description":"Schedule a visit: https://admissions.brandeis.edu/visit/","Size":"S","Region":"New England"}},
{"type":"Feature","geometry":{"type":"Point","coordinates":[-71.22168,42.3856989,0]},"properties":{"name":"Bentley University","description":"Schedule a visit: http://www.bentley.edu/undergraduate/visiting","Size":"S","Region":"New England"}},
{"type":"Feature","geometry":{"type":"Point","coordinates":[-72.5761394,42.2532535,0]},"properties":{"name":"Mount Holyoke College","description":"Schedule a visit: https://www.mtholyoke.edu/admission/visit/tours_interviews","Size":"S","Region":"New England"}},
{"type":"Feature","geometry":{"type":"Point","coordinates":[-72.6372341,42.3180957,0]},"properties":{"name":"Smith College","description":"Schedule a visit: https://www.smith.edu/admission-aid/campus-tours","Size":"S","Region":"New England"}},
{"type":"Feature","geometry":{"type":"Point","coordinates":[-72.5267121,42.3911569,0]},"properties":{"name":"University of Massachusetts Amherst","description":"Schedule a visit: https://www.umass.edu/admissions/visits/visit-campus","Size":"L","Region":"New England"}},
{"type":"Feature","geometry":{"type":"Point","coordinates":[-72.518814,42.37289,0]},"properties":{"name":"Amherst College","description":"Schedule a visit: https://www.amherst.edu/admission/visit/tours_infosessions","Size":"XS","Region":"New England"}},
{"type":"Feature","geometry":{"type":"Point","coordinates":[-73.2030214,42.7128038,0]},"properties":{"name":"Williams College","description":"Schedule a visit: http://admission.williams.edu/visit/","Size":"S","Region":"New England"}},
{"type":"Feature","geometry":{"type":"Point","coordinates":[-71.8052464,42.2378888,0]},"properties":{"name":"College of the Holy Cross","description":"Schedule a visit: http://www.holycross.edu/admissions-aid/visit","Size":"S","Region":"New England"}},
{"type":"Feature","geometry":{"type":"Point","coordinates":[-72.6569041,41.5566104,0]},"properties":{"name":"Wesleyan University","description":"Schedule a visit: http://wesleyan.edu/admission/visit/index.html","Size":"S","Region":"New England"}},
{"type":"Feature","geometry":{"type":"Point","coordinates":[-72.2539805,41.8077414,0]},"properties":{"name":"University of Connecticut","description":"Schedule a visit: https://admissions.uconn.edu/visit/storrs/plan#","Size":"L","Region":"New England"}},
{"type":"Feature","geometry":{"type":"Point","coordinates":[-72.1045869,41.3786877,0]},"properties":{"name":"Connecticut College","description":"Schedule a visit: https://admission.conncoll.edu/portal/campus-visit?_ga=1.257777228.699554914.1478456686","Size":"XS","Region":"New England"}},
{"type":"Feature","geometry":{"type":"Point","coordinates":[-72.6905035,41.7470945,0]},"properties":{"name":"Trinity College","description":"Schedule a visit: http://www.trincoll.edu/Admissions/campusvisit/Pages/default.aspx","Size":"S","Region":"New England"}},
{"type":"Feature","geometry":{"type":"Point","coordinates":[-73.254164,41.16116,0]},"properties":{"name":"Fairfield University","description":"Plan your visit: https://www.fairfield.edu/undergraduate/visit-and-apply/visits-and-interviews/plan-your-visit/","Size":"S","Region":"New England"}},
{"type":"Feature","geometry":{"type":"Point","coordinates":[-71.4025482,41.8267718,0]},"properties":{"name":"Brown University","description":"Schedule your visit: https://www.brown.edu/admission/undergraduate/visit","Size":"M","Region":"New England"}},
{"type":"Feature","geometry":{"type":"Point","coordinates":[-71.4381653,41.8440925,0]},"properties":{"name":"Providence College","description":"Schedule your visit: http://www.providence.edu/Admission/visit","Size":"S","Region":"New England"}},
{"type":"Feature","geometry":{"type":"Point","coordinates":[-69.96198,43.906776,0]},"properties":{"name":"Bowdoin College","description":"Schedule a visit: https://www.bowdoin.edu/admissions/visit/index.shtml","Size":"XS","Region":"New England"}},
{"type":"Feature","geometry":{"type":"Point","coordinates":[-70.2021865,44.1057216,0]},"properties":{"name":"Bates College","description":"Schedule a visit: http://www.bates.edu/admission/visit/","Size":"XS","Region":"New England"}},
{"type":"Feature","geometry":{"type":"Point","coordinates":[-69.6604228,44.5635359,0]},"properties":{"name":"Colby College","description":"Schedule a visit: https://www.colby.edu/admission/visit/","Size":"XS","Region":"New England"}},
{"type":"Feature","geometry":{"type":"Point","coordinates":[-70.9370252,43.138948,0]},"properties":{"name":"University of New Hampshire","description":"Schedule a visit: http://admissions.unh.edu/visit-campus","Size":"M","Region":"New England"}},
{"type":"Feature","geometry":{"type":"Point","coordinates":[-72.2886934,43.7044406,0]},"properties":{"name":"Dartmouth College","description":"Schedule a visit: https://admissions.dartmouth.edu/visits-programs/come-campus/visits-events-sign","Size":"M","Region":"New England"}},
{"type":"Feature","geometry":{"type":"Point","coordinates":[-73.1773286,44.0083035,0]},"properties":{"name":"Middlebury College","description":"Schedule a visit: http://www.middlebury.edu/admissions/visit","Size":"S ","Region":"New England"}},
{"type":"Feature","geometry":{"type":"Point","coordinates":[-73.1964637,44.4778528,0]},"properties":{"name":"University of Vermont","description":"Schedule a visit: https://www.uvm.edu/admissions/undergraduate/visit_us","Size":"M","Region":"New England"}},
{"type":"Feature","geometry":{"type":"Point","coordinates":[-71.8082116,42.2741724,0]},"properties":{"name":"Worcester Polytechnic Institute","description":"Schedule a visit: https://www.wpi.edu/admissions/undergraduate/visit","Size":"S","Region":"New England"}},
{"type":"Feature","geometry":{"type":"Point","coordinates":[-71.8223032,42.2501767,0]},"properties":{"name":"Clark University","description":"Schedule a visit: http://www.clarku.edu/admissions/undergraduate-admissions/visit-clark-undergraduate","Size":"S","Region":"New England"}},
{"type":"Feature","geometry":{"type":"Point","coordinates":[-73.1627561,44.4951628,0]},"properties":{"name":"Saint Michael's College","description":"","Size":"XS","Region":"New England"}},
{"type":"Feature","geometry":{"type":"Point","coordinates":[-76.9844868,42.8591531,0]},"properties":{"name":"Hobart and William Smith Colleges","description":"To schedule a visit: http://www.hws.edu/admissions/visit.aspx","Size":"S","Region":"Mid Atlantic"}},
{"type":"Feature","geometry":{"type":"Point","coordinates":[-75.5363589,42.8194365,0]},"properties":{"name":"Colgate University ","description":"Schedule a visit: http://www.colgate.edu/admission-financial-aid/visit-colgate","Size":"S","Region":"Mid Atlantic"}},
{"type":"Feature","geometry":{"type":"Point","coordinates":[-75.405094,43.053804,0]},"properties":{"name":"Hamilton College ","description":"Schedule a visit: https://www.hamilton.edu/admission/visiting","Size":"XS","Region":"Mid Atlantic"}},
{"type":"Feature","geometry":{"type":"Point","coordinates":[-76.4735027,42.4534492,0]},"properties":{"name":"Cornell University","description":"Schedule a visit: https://admissions.cornell.edu/visit","Size":"L","Region":"Mid Atlantic"}},
{"type":"Feature","geometry":{"type":"Point","coordinates":[-76.1371818,43.0400954,0]},"properties":{"name":"Syracuse University","description":"Schedule a visit: http://admissions.syr.edu/visit/","Size":"L","Region":"Mid Atlantic"}},
{"type":"Feature","geometry":{"type":"Point","coordinates":[-76.8847321,40.9548827,0]},"properties":{"name":"Bucknell University","description":"Schedule a visit: https://www.bucknell.edu/meet-bucknell/plan-visit","Size":"S","Region":"Mid Atlantic"}},
{"type":"Feature","geometry":{"type":"Point","coordinates":[-75.305318,40.0066524,0]},"properties":{"name":"Haverford College","description":"Schedule a visit: https://www.haverford.edu/admission/visiting","Size":"XS","Region":"Mid Atlantic"}},
{"type":"Feature","geometry":{"type":"Point","coordinates":[-75.3802222,40.6068247,0]},"properties":{"name":"Lehigh University ","description":"Schedule a visit: http://www1.lehigh.edu/admissions/undergrad/visit","Size":"M","Region":"Mid Atlantic"}},
{"type":"Feature","geometry":{"type":"Point","coordinates":[-75.2098233,40.699511,0]},"properties":{"name":"Lafayette College","description":"Schedule a visit: https://admissions.lafayette.edu/admissions-visits/","Size":"S","Region":"Mid Atlantic"}},
{"type":"Feature","geometry":{"type":"Point","coordinates":[-75.3542644,39.9051851,0]},"properties":{"name":"Swarthmore College","description":"Schedule a visit: http://www.swarthmore.edu/admissions-aid/visiting-swarthmore","Size":"XS","Region":"Mid Atlantic"}},
{"type":"Feature","geometry":{"type":"Point","coordinates":[-75.3417427,40.0358367,0]},"properties":{"name":"Villanova University","description":"Schedule a visit: http://www1.villanova.edu/villanova/admission/visit.html","Size":"M","Region":"Mid Atlantic"}},
{"type":"Feature","geometry":{"type":"Point","coordinates":[-75.193799,39.951481,0]},"properties":{"name":"University of Pennsylvania ","description":"Schedule a visit: http://www.admissions.upenn.edu/visit","Size":"L","Region":"Mid Atlantic"}},
{"type":"Feature","geometry":{"type":"Point","coordinates":[-77.0870905,38.9393372,0]},"properties":{"name":"American University","description":"Schedule a visit: http://www.american.edu/admissions/toursinfosessions.cfm","Size":"M","Region":"Mid Atlantic"}},
{"type":"Feature","geometry":{"type":"Point","coordinates":[-77.0476606,38.9009637,0]},"properties":{"name":"George Washington University","description":"Schedule a visit: https://undergraduate.admissions.gwu.edu/visit-gw","Size":"M","Region":"Mid Atlantic"}},
{"type":"Feature","geometry":{"type":"Point","coordinates":[-77.072297,38.9089272,0]},"properties":{"name":"Georgetown University","description":"Schedule a visit: https://uadmissions.georgetown.edu/visiting","Size":"M","Region":"Mid Atlantic"}},
{"type":"Feature","geometry":{"type":"Point","coordinates":[-77.5396137,37.5739607,0]},"properties":{"name":"University Of Richmond","description":"Schedule a visit: https://admissions.richmond.edu/visit/index.html","Size":"S","Region":"South"}},
{"type":"Feature","geometry":{"type":"Point","coordinates":[-78.5079772,38.0335529,0]},"properties":{"name":"University of Virginia","description":"Schedule of visit: http://www.virginia.edu/visit/schedule","Size":"L","Region":"South"}},
{"type":"Feature","geometry":{"type":"Point","coordinates":[-76.7090793,37.269442,0]},"properties":{"name":"College of William and Mary","description":"Schedule a visit: http://www.wm.edu/admission/undergraduateadmission/visit/","Size":"M","Region":"South"}},
{"type":"Feature","geometry":{"type":"Point","coordinates":[-79.4439855,37.7915066,0]},"properties":{"name":"Washington and Lee University","description":"Schedule a visit: https://www.wlu.edu/admissions/visit","Size":"S","Region":"South"}},
{"type":"Feature","geometry":{"type":"Point","coordinates":[-78.9333586,35.9997506,0]},"properties":{"name":"Duke University","description":"Schedule a visit:https://admissions.duke.edu/visit/","Size":"M","Region":"South"}},
{"type":"Feature","geometry":{"type":"Point","coordinates":[-79.0469134,35.9049122,0]},"properties":{"name":"University of North Carolina at Chapel Hill","description":"Schedule a visit: http://admissions.unc.edu/visit/","Size":"L","Region":"South"}},
{"type":"Feature","geometry":{"type":"Point","coordinates":[-80.2822801,36.1313016,0]},"properties":{"name":"Wake Forest University","description":"Schedule a visit: http://admissions.wfu.edu/visit/schedule-a-visit/","Size":"S","Region":"South"}},
{"type":"Feature","geometry":{"type":"Point","coordinates":[-79.5043469,36.1048739,0]},"properties":{"name":"Elon University","description":"Schedule a visit: https://www.elon.edu/e/admissions/undergraduate/visit-campus/index.html","Size":"M","Region":"South"}},
{"type":"Feature","geometry":{"type":"Point","coordinates":[-80.8431315,35.5024917,0]},"properties":{"name":"Davidson College","description":"Schedule a visit: https://www.davidson.edu/about/visit-davidson","Size":"XS","Region":"South"}},
{"type":"Feature","geometry":{"type":"Point","coordinates":[-84.3239989,33.7925195,0]},"properties":{"name":"Emory University","description":"Schedule a visit: http://www.emory.edu/home/about/visiting/index.html","Size":"M","Region":"South"}},
{"type":"Feature","geometry":{"type":"Point","coordinates":[-83.3773221,33.9480053,0]},"properties":{"name":"University of Georgia","description":"Schedule a visit: https://www.admissions.uga.edu/connect-with-us/visit-uga","Size":"L","Region":"South"}},
{"type":"Feature","geometry":{"type":"Point","coordinates":[-86.805073,36.1481833,0]},"properties":{"name":"Vanderbilt University ","description":"Schedule a visit: http://admissions.vanderbilt.edu/visit/","Size":"M","Region":"South"}},
{"type":"Feature","geometry":{"type":"Point","coordinates":[-83.7426394,42.2764302,0]},"properties":{"name":"University of Michigan ","description":"Schedule a visit: https://admissions.umich.edu/explore-visit/visit-campus","Size":"L","Region":"Midwest"}},
{"type":"Feature","geometry":{"type":"Point","coordinates":[-84.4814139,42.7296518,0]},"properties":{"name":"Michigan State University","description":"Schedule a visit: https://admissions.msu.edu/visit/","Size":"L","Region":"Midwest"}},
{"type":"Feature","geometry":{"type":"Point","coordinates":[-89.4081352,43.0719139,0]},"properties":{"name":"University of Wisconsin - Madison","description":"Schedule a visit: https://www.admissions.wisc.edu/visitbucky/visit_info.php","Size":"L","Region":"Midwest"}},
{"type":"Feature","geometry":{"type":"Point","coordinates":[-86.5156096,39.1682386,0]},"properties":{"name":"Indiana University","description":"Schedule a visit: https://admissions.indiana.edu/visit/index.html","Size":"L","Region":"Midwest"}},
{"type":"Feature","geometry":{"type":"Point","coordinates":[-86.23289,41.6957515,0]},"properties":{"name":"University of Notre Dame","description":"Schedule a visit: http://admissions.nd.edu/connect/visit/","Size":"M","Region":"Midwest"}},
{"type":"Feature","geometry":{"type":"Point","coordinates":[-87.6734784,42.0503531,0]},"properties":{"name":"Northwestern University","description":"Schedule a visit: http://admissions.northwestern.edu/visit/plan-your-visit/","Size":"L","Region":"Midwest"}},
{"type":"Feature","geometry":{"type":"Point","coordinates":[-87.5990805,41.7889163,0]},"properties":{"name":"University of Chicago ","description":"Schedule a visit: https://visit.uchicago.edu/","Size":"M","Region":"Midwest"}},
{"type":"Feature","geometry":{"type":"Point","coordinates":[-93.1687294,44.9397631,0]},"properties":{"name":"Macalester College","description":"Schedule a visit: http://www.macalester.edu/admissions/visitcampus/","Size":"S","Region":"Midwest"}},
{"type":"Feature","geometry":{"type":"Point","coordinates":[-93.1560904,44.4613533,0]},"properties":{"name":"Carleton College","description":"Schedule a visit: https://apps.carleton.edu/admissions/visit/","Size":"S","Region":"Midwest"}},
{"type":"Feature","geometry":{"type":"Point","coordinates":[-93.1828167,44.4617681,0]},"properties":{"name":"St. Olaf College","description":"Schedule a visit: http://wp.stolaf.edu/admissions/home/visiting/","Size":"S","Region":"Midwest"}},
{"type":"Feature","geometry":{"type":"Point","coordinates":[-117.7131721,34.097114,0]},"properties":{"name":"Pomona College","description":"Schedule a visit: https://www.pomona.edu/admissions","Size":"XS","Region":"West"}},
{"type":"Feature","geometry":{"type":"Point","coordinates":[-117.7113434,34.1033704,0]},"properties":{"name":"Scripps College","description":"Schedule a visit: http://www.scrippscollege.edu/admission/visit","Size":"XS","Region":"West"}},
{"type":"Feature","geometry":{"type":"Point","coordinates":[-117.7079219,34.1017767,0]},"properties":{"name":"Claremont McKenna College","description":"Schedule a visit: https://www.cmc.edu/admission/visit","Size":"XS","Region":"West"}},
{"type":"Feature","geometry":{"type":"Point","coordinates":[-117.7110568,34.1064118,0]},"properties":{"name":"Harvey Mudd College ","description":"Schedule a visit: https://www.hmc.edu/admission/connect/visiting-campus/","Size":"XS","Region":"West"}},
{"type":"Feature","geometry":{"type":"Point","coordinates":[-117.7047193,34.1046624,0]},"properties":{"name":"Pitzer College","description":"Schedule a visit:http://pitweb.pitzer.edu/admission/visiting-campus/","Size":"XS","Region":"West"}},
{"type":"Feature","geometry":{"type":"Point","coordinates":[-118.4451811,34.068921,0]},"properties":{"name":"University of California, Los Angeles","description":"Schedule a visit: http://www.ucla.edu/visit","Size":"L","Region":"West"}},
{"type":"Feature","geometry":{"type":"Point","coordinates":[-118.2864983,34.0200926,0]},"properties":{"name":"University of Southern California (USC)","description":"Schedule a visit: http://visit.usc.edu/","Size":"L","Region":"West"}},
{"type":"Feature","geometry":{"type":"Point","coordinates":[-118.7095814,34.0414045,0]},"properties":{"name":"Pepperdine University","description":"Schedule a visit: https://www.pepperdine.edu/admission/visit-campus/","Size":"S","Region":"West"}},
{"type":"Feature","geometry":{"type":"Point","coordinates":[-118.3306352,46.0705799,0]},"properties":{"name":"Whitman College","description":"Schedule a visit: https://www.whitman.edu/admission-and-aid/visit-whitman","Size":"XS","Region":"West"}},
{"type":"Feature","geometry":{"type":"Point","coordinates":[-76.6205177,39.3299013,0]},"properties":{"name":"Johns Hopkins University","description":"Schedule a visit: https://www.jhu.edu/admissions/visit/","Size":"M","Region":"Mid Atlantic"}},
{"type":"Feature","geometry":{"type":"Point","coordinates":[-76.9406427,38.9881669,0]},"properties":{"name":"University of Maryland","description":"Schedule a visit: https://www.jhu.edu/admissions/visit/","Size":"L","Region":"Mid Atlantic"}},
{"type":"Feature","geometry":{"type":"Point","coordinates":[-72.9223431,41.3163244,0]},"properties":{"name":"Yale University","description":"Schedule a visit:https://admissions.yale.edu/tours","Size":"M","Region":"New England"}},
{"type":"Feature","geometry":{"type":"Point","coordinates":[-74.6514481,40.3439888,0]},"properties":{"name":"Princeton University","description":"Schedule a visit: https://admission.princeton.edu/visitprinceton","Size":"M","Region":"Mid Atlantic"}},
{"type":"Feature","geometry":{"type":"Point","coordinates":[-73.6788026,42.730172,0]},"properties":{"name":"Rensselaer Polytechnic Institute","description":"Schedule a visit: http://admissions.rpi.edu/undergraduate/visit/tours.html","Size":"M","Region":"Mid Atlantic"}},
{"type":"Feature","geometry":{"type":"Point","coordinates":[-73.7783817,43.0976721,0]},"properties":{"name":"Skidmore College","description":"Schedule a visit: http://www.skidmore.edu/admissions/visit/schedule.php","Size":"S","Region":"Mid Atlantic"}},
{"type":"Feature","geometry":{"type":"Point","coordinates":[-73.9322429,42.8181274,0]},"properties":{"name":"Union College - Admissions Office","description":"Schedule a visit: https://www.union.edu/admissions/visit/","Size":"S","Region":"Mid Atlantic"}},
{"type":"Feature","geometry":{"type":"Point","coordinates":[-81.6083838,41.5043413,0]},"properties":{"name":"Case Western Reserve University","description":"Schedule a visit: http://www.case.edu/visit/","Size":"M","Region":"Midwest"}},
{"type":"Feature","geometry":{"type":"Point","coordinates":[-79.9434567,40.4434658,0]},"properties":{"name":"Carnegie Mellon University","description":"Schedule a visit: https://admission.enrollment.cmu.edu/pages/visit","Size":"M","Region":"Mid Atlantic"}},
{"type":"Feature","geometry":{"type":"Point","coordinates":[-75.7540188,39.6777019,0]},"properties":{"name":"University of Delaware - Admissions","description":"Schedule a visit: http://www.udel.edu/apply/undergraduate-admissions/plan-your-visit/","Size":"L","Region":"Mid Atlantic"}},
{"type":"Feature","geometry":{"type":"Point","coordinates":[-97.119277,31.5465583,0]},"properties":{"name":"Baylor University - Admissions Office","description":"Schedule a visit: http://www.baylor.edu/admissions/index.php?id=871965","Size":"M","Region":"South"}},
{"type":"Feature","geometry":{"type":"Point","coordinates":[-95.3977661,29.7176068,0]},"properties":{"name":"Rice University ","description":"Schedule a visit: http://futureowls.rice.edu/futureowls/Visit.asp","Size":"S","Region":"South"}},
{"type":"Feature","geometry":{"type":"Point","coordinates":[-96.7845175,32.8412178,0]},"properties":{"name":"Southern Methodist University","description":"Schedule a visit: http://www.smu.edu/Admission/Visit?utm_medium=alias%20redirect&utm_source=smu&utm_campaign=%2Fvisit","Size":"M","Region":"South"}},
{"type":"Feature","geometry":{"type":"Point","coordinates":[-97.7393728,30.2861791,0]},"properties":{"name":"University of Texas at Austion","description":"Schedule a visit: https://admissions.utexas.edu/visit","Size":"L","Region":"South"}},
{"type":"Feature","geometry":{"type":"Point","coordinates":[-90.1207279,29.9403477,0]},"properties":{"name":"Tulane University","description":"Schedule a visit: https://admission.tulane.edu/visit","Size":"M","Region":"South"}},
{"type":"Feature","geometry":{"type":"Point","coordinates":[-86.9211946,40.4237054,0]},"properties":{"name":"Purdue University","description":"Schedule a visit: http://www.admissions.purdue.edu/visit/","Size":"L","Region":"Midwest"}},
{"type":"Feature","geometry":{"type":"Point","coordinates":[-82.522643,40.074025,0]},"properties":{"name":"Denison University","description":"Schedule a visit: http://denison.edu/campus/visit","Size":"S","Region":"Midwest"}},
{"type":"Feature","geometry":{"type":"Point","coordinates":[-84.7308768,39.5105334,0]},"properties":{"name":"Miami University (OH)","description":"Schedule a visit: http://miamioh.edu/about-miami/visiting-miami/","Size":"L","Region":"Midwest"}},
{"type":"Feature","geometry":{"type":"Point","coordinates":[-83.016536,40.006103,0]},"properties":{"name":"Ohio State University","description":"Schedule a visit: https://undergrad.osu.edu/visit","Size":"L","Region":"Midwest"}},
{"type":"Feature","geometry":{"type":"Point","coordinates":[-73.9623105,40.8077353,0]},"properties":{"name":"Columbia University","description":"Schedule a visit: https://undergrad.admissions.columbia.edu/visit","Size":"M","Region":"Mid Atlantic"}},
{"type":"Feature","geometry":{"type":"Point","coordinates":[-73.8856987,40.8620404,0]},"properties":{"name":"Fordham University","description":"Schedule a visit: http://www.fordham.edu/info/20530/visit","Size":"M","Region":"Mid Atlantic"}},
{"type":"Feature","geometry":{"type":"Point","coordinates":[-73.9964609,40.7295134,0]},"properties":{"name":"New York University","description":"Schedule a visit: http://www.nyu.edu/admissions/undergraduate-admissions/visit-nyu.html","Size":"L","Region":"Mid Atlantic"}},
{"type":"Feature","geometry":{"type":"Point","coordinates":[-74.4556291,40.5235212,0]},"properties":{"name":"Rutgers University","description":"Schedule a visit: http://newbrunswick.rutgers.edu/visit/visit-rutgers","Size":"L","Region":"Mid Atlantic"}},
{"type":"Feature","geometry":{"type":"Point","coordinates":[-73.9639632,40.8090974,0]},"properties":{"name":"Barnard College, Columbia University","description":"Schedule a visit: https://admissions.barnard.edu/plan-your-visit","Size":"S","Region":"Mid Atlantic"}},
{"type":"Feature","geometry":{"type":"Point","coordinates":[-76.998692,38.9368811,0]},"properties":{"name":"Catholic University ","description":"Schedule a visit: http://www.cua.edu/admission/undergraduate/visit-campus/index.html","Size":"S","Region":"Mid Atlantic"}},
{"type":"Feature","geometry":{"type":"Point","coordinates":[-77.8582801,40.8067996,0]},"properties":{"name":"Penn State University - University Park","description":"Schedule a visit: http://admissions.psu.edu/pennstate/visit/","Size":"L","Region":"MidAtlantic"}},
{"type":"Feature","geometry":{"type":"Point","coordinates":[-77.1962298,40.2017136,0]},"properties":{"name":"Dickinson College Admissions Office","description":"Schedule a visit: https://www.dickinson.edu/homepage/278/visit","Size":"S","Region":"Mid Atlantic"}},
{"type":"Feature","geometry":{"type":"Point","coordinates":[-122.2585399,37.8718992,0]},"properties":{"name":"University of California, Berkeley","description":"Schedule a visit: http://www.berkeley.edu/about/visit","Size":"L","Region":"West"}},
{"type":"Feature","geometry":{"type":"Point","coordinates":[-71.0657174,42.3520869,0]},"properties":{"name":"Emerson College","description":"Schedule a visit: http://www.emerson.edu/undergraduate-admission/visit","Size":"S","Region":"New England"}},
{"type":"Feature","geometry":{"type":"Point","coordinates":[-75.3151772,40.0230237,0]},"properties":{"name":"Bryn Mawr","description":"Schedule a visit: https://www.brynmawr.edu/node/424","Size":"XS","Region":"Mid Atlantic"}},
{"type":"Feature","geometry":{"type":"Point","coordinates":[-105.2659417,40.007581,0]},"properties":{"name":"University of Colorado Boulder","description":"Schedule a visit: http://www.colorado.edu/visit/admissions","Size":"L","Region":"West"}},
{"type":"Feature","geometry":{"type":"Point","coordinates":[-104.824394,38.846594,0]},"properties":{"name":"Colorado College","description":"Schedule a visit: https://www.coloradocollege.edu/admission/introduceyourself/visit/","Size":"XS","Region":"West"}},
{"type":"Feature","geometry":{"type":"Point","coordinates":[-104.9618965,39.6766174,0]},"properties":{"name":"University of Denver","description":"Schedule a visit: http://www.du.edu/apply/admission/visit/","Size":"M","Region":"West"}},
{"type":"Feature","geometry":{"type":"Point","coordinates":[-118.213238,34.127159,0]},"properties":{"name":"Occidental College","description":"Schedule a visit: https://admission.oxy.edu/portal/campus-visit","Size":"S","Region":"West"}},
{"type":"Feature","geometry":{"type":"Point","coordinates":[-119.848947,34.4139629,0]},"properties":{"name":"University of California, Santa Barbara","description":"Schedule a visit: http://admissions.sa.ucsb.edu/visit-ucsb","Size":"L","Region":"West"}},
{"type":"Feature","geometry":{"type":"Point","coordinates":[-121.9389875,37.3496418,0]},"properties":{"name":"Santa Clara University","description":"Schedule a visit: https://www.scu.edu/admission/undergraduate/visits-events/","Size":"M","Region":"West"}},
{"type":"Feature","geometry":{"type":"Point","coordinates":[-122.1644402,37.4295057,0]},"properties":{"name":"Stanford University ","description":"Schedule a visit: http://visit.stanford.edu/","Size":"L","Region":"West"}},
{"type":"Feature","geometry":{"type":"Point","coordinates":[-90.3107962,38.6487895,0]},"properties":{"name":"Washington University in St. Louis","description":"Schedule a visit: https://admissions.wustl.edu/visit","Size":"M","Region":"Midwest"}},
{"type":"Feature","geometry":{"type":"Point","coordinates":[-82.2236001,41.293483,0]},"properties":{"name":"Oberlin College","description":"Schedule a visit: https://new.oberlin.edu/visitor/","Size":"S","Region":"Midwest "}},
{"type":"Feature","geometry":{"type":"Point","coordinates":[-92.7228798,41.7466005,0]},"properties":{"name":"Grinnell College ","description":"Schedule a visit: https://www.grinnell.edu/admission/visit","Size":"XS","Region":"Midwest"}},
{"type":"Feature","geometry":{"type":"Point","coordinates":[-84.396285,33.7756178,0]},"properties":{"name":"Georgia Institute of Technology","description":"Schedule a visit: http://admission.gatech.edu/visit","Size":"L","Region":"South"}},
{"type":"Feature","geometry":{"type":"Point","coordinates":[-82.8391551,34.680476,0]},"properties":{"name":"Clemson University","description":"Schedule a visit: http://www.clemson.edu/visit/","Size":"L","Region":"South"}},
{"type":"Feature","geometry":{"type":"Point","coordinates":[-82.4382693,34.9237,0]},"properties":{"name":"Furman University","description":"Schedule a visit: http://www.furman.edu/admission/EngageFurman/Visit/Pages/default.aspx","Size":"S","Region":"South"}},
{"type":"Feature","geometry":{"type":"Point","coordinates":[-76.6213734,39.3462005,0]},"properties":{"name":"Loyola University Maryland","description":"Schedule a visit: http://www.loyola.edu/admission/undergraduate/visit","Size":"M","Region":"Mid Atlantic"}},
{"type":"Feature","geometry":{"type":"Point","coordinates":[-82.3983079,40.3718965,0]},"properties":{"name":"Kenyon College","description":"Schedule a visit: http://www.kenyon.edu/visit-kenyon/","Size":"S","Region":"Midwest"}},
{"type":"Feature","geometry":{"type":"Point","coordinates":[-97.362795,32.70953,0]},"properties":{"name":"Texas Christian University","description":"Schedule a visit: https://admissions.tcu.edu/visit/","Size":"M","Region":"South"}},
{"type":"Feature","geometry":{"type":"Point","coordinates":[-81.9336187,40.8110501,0]},"properties":{"name":"The College of Wooster","description":"Schedule a visit: http://www.wooster.edu/admissions/visit/","Size":"Small","Region":"Midwest"}},
{"type":"Feature","geometry":{"type":"Point","coordinates":[-78.8697548,38.435092,0]},"properties":{"name":"James Madison University","description":"Schedule a visit: https://www.jmu.edu/admissions/visit/schedule.shtml","Size":"L","Region":"Mid-Atlantic"}},
{"type":"Feature","geometry":{"type":"Point","coordinates":[-79.9539169,40.4455819,0]},"properties":{"name":"University of Pittsburgh - Admissions Office","description":"Schedule a visit: https://oafa.pitt.edu/visit/","Size":"L","Region":"Mid-Atlantic"}},
{"type":"Feature","geometry":{"type":"Point","coordinates":[-71.4074596,41.8259947,0]},"properties":{"name":"Rhode Island School of Design","description":"","Size":"","Region":""}},
{"type":"Feature","geometry":{"type":"Point","coordinates":[-80.4234167,37.2283843,0]},"properties":{"name":"Virginia Polytechnic Institute and State University","description":"Schedule a visit: https://vt.edu/admissions/undergraduate/visit.html","Size":"Large","Region":"South"}},
{"type":"Feature","geometry":{"type":"Point","coordinates":[-75.5101987,40.5959497,0]},"properties":{"name":"Muhlenberg College","description":"Schedule a visit: http://www.muhlenberg.edu/main/admissions/visitwithus/","Size":"S","Region":"Mid Atlantic"}},
{"type":"Feature","geometry":{"type":"Point","coordinates":[-75.1899441,39.9566127,0]},"properties":{"name":"Drexel University","description":"","Size":"","Region":""}},
{"type":"Feature","geometry":{"type":"Point","coordinates":[-75.1553512,39.9811935,0]},"properties":{"name":"Temple University","description":"","Size":"","Region":""}},
{"type":"Feature","geometry":{"type":"Point","coordinates":[-79.9371762,32.7836117,0]},"properties":{"name":"College of Charleston","description":"Schedule a visit: http://cofc.edu/visit/","Size":"M","Region":"South"}},
{"type":"Feature","geometry":{"type":"Point","coordinates":[-81.0303244,33.9982646,0]},"properties":{"name":"University of South Carolina","description":"Schedule a visit: http://www.sc.edu/visit/schedule_a_visit/","Size":"L","Region":"South"}},
{"type":"Feature","geometry":{"type":"Point","coordinates":[-81.348326,28.592242,0]},"properties":{"name":"Rollins College","description":"Schedule a visit:http://www.rollins.edu/admission/visit/schedule-a-visit.html","Size":"S","Region":"South"}},
{"type":"Feature","geometry":{"type":"Point","coordinates":[-80.2792843,25.7216374,0]},"properties":{"name":"University of Miami","description":"Schedule a visit: http://admissions.miami.edu/undergraduate/get-started/visit/index.html","Size":"L","Region":"South"}},
{"type":"Feature","geometry":{"type":"Point","coordinates":[-87.655034,41.925642,0]},"properties":{"name":"DePaul University Undergraduate Admission Office","description":"Schedule a visit: https://www.depaul.edu/admission-and-aid/visit-depaul/pages/default.aspx","Size":"L","Region":"Midwest"}},
{"type":"Feature","geometry":{"type":"Point","coordinates":[-76.3179016,40.0475258,0]},"properties":{"name":"Franklin & Marshall College","description":"Schedule a visit: https://www.fandm.edu/visit/admission-visit","Size":"Small","Region":"Mid Atlantic"}},
{"type":"Feature","geometry":{"type":"Point","coordinates":[-77.235573,39.836815,0]},"properties":{"name":"Gettysburg College","description":"Schedule a visit: https://www.gettysburg.edu/visiting_gettysburg/","Size":"Small","Region":"Mid Atlantic"}},
{"type":"Feature","geometry":{"type":"Point","coordinates":[-85.4951663,32.5933574,0]},"properties":{"name":"Auburn University","description":"Schedule a visit: http://www.auburn.edu/admissions/visit/","Size":"L","Region":"South"}},
{"type":"Feature","geometry":{"type":"Point","coordinates":[-71.2636653,42.2931671,0]},"properties":{"name":"Franklin W. Olin College of Engineering","description":"","Size":"S","Region":"New England"}},
{"type":"Feature","geometry":{"type":"Point","coordinates":[-71.1859435,41.9667449,0]},"properties":{"name":"Wheaton College","description":"","Size":"S","Region":"New England"}},
{"type":"Feature","geometry":{"type":"Point","coordinates":[-89.5383759,34.3646074,0]},"properties":{"name":"University Of Mississippi","description":"Schedule a visit: https://admissions.olemiss.edu/visiting-the-university-of-mississippi/","Size":"L","Region":"South"}},
{"type":"Feature","geometry":{"type":"Point","coordinates":[-71.0895292,42.3465952,0]},"properties":{"name":"Berklee College of Music","description":"","Size":"","Region":""}},
{"type":"Feature","geometry":{"type":"Point","coordinates":[-91.1800023,30.4132579,0]},"properties":{"name":"Louisiana State University","description":"Schedule a visit: https://sites01.lsu.edu/wp/admissions/visit-lsu-2/","Size":"L","Region":"South"}},
{"type":"Feature","geometry":{"type":"Point","coordinates":[-78.6820946,35.7846633,0]},"properties":{"name":"North Carolina State University","description":"Schedule a Visit: https://admissions.ncsu.edu/visit/schedule-your-visit/","Size":"L","Region":"South"}},
{"type":"Feature","geometry":{"type":"Point","coordinates":[-86.1711908,39.8411235,0]},"properties":{"name":"Butler University","description":"Schedule a Visit: https://www.butler.edu/visit","Size":"M","Region":"Midwest"}},
{"type":"Feature","geometry":{"type":"Point","coordinates":[-118.4185613,33.9705835,0]},"properties":{"name":"Loyola Marymount University","description":"Schedule a visit: https://www.lmu.edu/campus/visit/","Size":"M","Region":"West"}},
{"type":"Feature","geometry":{"type":"Point","coordinates":[-89.9892872,35.1550839,0]},"properties":{"name":"Rhodes College","description":"Schedule a visit: https://www.rhodes.edu/content/visit-rhodes-0","Size":"S","Region":"South"}},
{"type":"Feature","geometry":{"type":"Point","coordinates":[-73.9341204,41.7224565,0]},"properties":{"name":"Marist College","description":"Schedule a visit: http://www.marist.edu/admission/visiting.html","Size":"M","Region":"Mid Atlantic"}},
{"type":"Feature","geometry":{"type":"Point","coordinates":[-71.4130131,41.8198,0]},"properties":{"name":"Johnson & Wales University Providence Campus","description":"Schedule a visit: https://www.jwu.edu/admissions/visit-and-connect/index.html","Size":"M","Region":"New England"}},
{"type":"Feature","geometry":{"type":"Point","coordinates":[-90.2338232,38.6354598,0]},"properties":{"name":"Saint Louis University","description":"Schedule a visit: https://www.slu.edu/admission/visit/index.php","Size":"M","Region":"Midwest"}},
{"type":"Feature","geometry":{"type":"Point","coordinates":[-71.3006438,41.4714527,0]},"properties":{"name":"Salve Regina University","description":"Schedule a visit: http://www.salve.edu/visit","Size":"Small","Region":"New England"}},
{"type":"Feature","geometry":{"type":"Point","coordinates":[-105.2225705,39.7510136,0]},"properties":{"name":"Colorado School of Mines","description":"Schedule a visit: https://tour.mines.edu/visit/","Size":"M","Region":"West"}},
{"type":"Feature","geometry":{"type":"Point","coordinates":[-71.5308537,41.4860647,0]},"properties":{"name":"University of Rhode Island","description":"Schedule a visit: https://web.uri.edu/admission/visit-us/","Size":"M","Region":"New England"}},
{"type":"Feature","geometry":{"type":"Point","coordinates":[-74.0048567,40.7111197,0]},"properties":{"name":"Pace University","description":"Schedule a visit: https://admission.pace.edu/portal/campus-tours-nyc","Size":"M","Region":"Mid Atlantic"}},
{"type":"Feature","geometry":{"type":"Point","coordinates":[-87.6272163,41.8776638,0]},"properties":{"name":"DePaul University - Loop Campus","description":"","Size":"","Region":""}},
{"type":"Feature","geometry":{"type":"Point","coordinates":[-71.0613561,42.3585205,0]},"properties":{"name":"Suffolk University","description":"Schedule a visit: https://uga.suffolk.edu/portal/campus-visit","Size":"M","Region":"New England"}},
{"type":"Feature","geometry":{"type":"Point","coordinates":[-73.8957002,41.6867992,0]},"properties":{"name":"Vassar College","description":"Schedule a visit: https://admissions.vassar.edu/visit/","Size":"S","Region":"Mid Atlantic"}},
{"type":"Feature","geometry":{"type":"Point","coordinates":[-122.670312,45.4490949,0]},"properties":{"name":"Lewis & Clark College","description":"Schedule a visit: https://apply.lclark.edu/portal/visit","Size":"Small","Region":"West"}},
{"type":"Feature","geometry":{"type":"Point","coordinates":[-71.0999358,42.3393661,0]},"properties":{"name":"Simmons University","description":"Schedule a visit: http://www.simmons.edu/admission-and-financial-aid/undergraduate-admission/visit","Size":"Small","Region":"New England"}},
{"type":"Feature","geometry":{"type":"Point","coordinates":[-77.8701325,34.2239869,0]},"properties":{"name":"University of North Carolina Wilmington","description":"Schedule a visit: https://uncw.edu/admissions/visit/","Size":"M","Region":"South"}},
{"type":"Feature","geometry":{"type":"Point","coordinates":[-71.8441349,42.2679717,0]},"properties":{"name":"Worcester State University","description":"Schedule a visit: https://www.worcester.edu/Visit-Us/","Size":"M","Region":"New England"}},
{"type":"Feature","geometry":{"type":"Point","coordinates":[-118.125269,34.1376576,0]},"properties":{"name":"California Institute of Technology","description":"Schedule a visit: http://www.caltech.edu/content/visit","Size":"Small","Region":"West"}},
{"type":"Feature","geometry":{"type":"Point","coordinates":[-76.498564,42.421658,0]},"properties":{"name":"Ithaca College","description":"Schedule a visit: https://www.ithaca.edu/admission/visit","Size":"Medium","Region":"MidAtlantic"}},
{"type":"Feature","geometry":{"type":"Point","coordinates":[-72.5322761,42.3263595,0]},"properties":{"name":"Hampshire College","description":"Schedule a visit: https://www.hampshire.edu/admissions/visit-hampshire","Size":"Small","Region":"New England"}},
{"type":"Feature","geometry":{"type":"Point","coordinates":[-77.6311941,43.1264079,0]},"properties":{"name":"University of Rochester Office of Admisisons","description":"Schedule a visit: https://enrollment.rochester.edu/on-campus-visits/","Size":"Medium","Region":"Mid Atlantic"}},
{"type":"Feature","geometry":{"type":"Point","coordinates":[-71.539059,41.921526,0]},"properties":{"name":"Bryant University","description":"Schedule a visit: https://explore.bryant.edu/portal/visitcampus","Size":"Small","Region":"New England"}},
{"type":"Feature","geometry":{"type":"Point","coordinates":[-75.1611836,44.5897655,0]},"properties":{"name":"Saint Lawrence University","description":"Schedule a visit: https://www.stlawu.edu/admissions/check-us-out","Size":"Small","Region":"Mid Atlantic"}},
{"type":"Feature","geometry":{"type":"Point","coordinates":[-77.4509716,37.5495049,0]},"properties":{"name":"Virginia Commonwealth University","description":"Schedule a visit: https://www.vcu.edu/admissions/visit-vcu/","Size":"Large","Region":"South"}},
{"type":"Feature","geometry":{"type":"Point","coordinates":[-83.0679916,40.2962536,0]},"properties":{"name":"Ohio Wesleyan University","description":"Schedule a visit: https://apply.owu.edu/portal/campus-visit","Size":"Small","Region":"Midwest"}},
{"type":"Feature","geometry":{"type":"Point","coordinates":[-84.5039697,38.0306511,0]},"properties":{"name":"University of Kentucky","description":"Schedule a visit: http://www.uky.edu/admission/visitor-center","Size":"Large","Region":"South"}},
{"type":"Feature","geometry":{"type":"Point","coordinates":[-84.7788779,37.6456143,0]},"properties":{"name":"Centre College","description":"Schedule a visit: https://www.centre.edu/schedule-a-visit/","Size":"Small","Region":"South"}},
{"type":"Feature","geometry":{"type":"Point","coordinates":[-85.9193342,35.2040228,0]},"properties":{"name":"The University Of The South","description":"Schedule a visit: https://new.sewanee.edu/admission-aid/visit/","Size":"Small","Region":"South"}},
{"type":"Feature","geometry":{"type":"Point","coordinates":[-83.9308726,35.9531507,0]},"properties":{"name":"Belmont University","description":"Schedule a visit: https://admissions.utk.edu/campus-tours-events/campus-tours/","Size":"Large","Region":"South"}},
{"type":"Feature","geometry":{"type":"Point","coordinates":[-86.7941557,36.133314,0]},"properties":{"name":"","description":"","Size":"","Region":""}},
{"type":"Feature","geometry":{"type":"Point","coordinates":[-74.998544,44.6637611,0]},"properties":{"name":"Clarkson University","description":"Schedule a visit: https://www.clarkson.edu/undergraduate-admissions/admissions-visits-and-events","Size":"Small","Region":"Mid Atlantic"}},
{"type":"Feature","geometry":{"type":"Point","coordinates":[-72.8942976,41.4196253,0]},"properties":{"name":"Quinnipiac University","description":"schedule a visit: https://www.qu.edu/meet-us/visit-us.html","Size":"M","Region":"New England"}},
{"type":"Feature","geometry":{"type":"Point","coordinates":[-73.2443088,41.2207614,0]},"properties":{"name":"Sacred Heart University","description":"Schedule a visit: https://www.sacredheart.edu/aboutshu/visiting/scheduleavisit/","Size":"M","Region":"New England"}},
{"type":"Feature","geometry":{"type":"Point","coordinates":[-73.5771511,45.5047847,0]},"properties":{"name":"McGill University","description":"Schedule a visit: https://www.mcgill.ca/undergraduate-admissions/visits/campus-tours","Size":"Large","Region":""}},
{"type":"Feature","geometry":{"type":"Point","coordinates":[-123.0726055,44.0448302,0]},"properties":{"name":"University of Oregon","description":"Schedule a visit: https://visit.uoregon.edu/","Size":"L","Region":"West"}},
{"type":"Feature","geometry":{"type":"Point","coordinates":[-77.6744151,43.0849046,0]},"properties":{"name":"Rochester Institute of Technology","description":"Schedule a visit: https://www.rit.edu/admissions/freshman/schedule-a-visit","Size":"Large","Region":"Mid Atlantic"}},
{"type":"Feature","geometry":{"type":"Point","coordinates":[-121.7621416,38.5358153,0]},"properties":{"name":"University of California, Davis","description":"Schedule a visit: https://www.ucdavis.edu/about/visit/","Size":"Large","Region":"West"}},
{"type":"Feature","geometry":{"type":"Point","coordinates":[-73.9944837,40.7351297,0]},"properties":{"name":"Parsons School of Design","description":"Schedule a Visit: https://www.newschool.edu/admission/visit/undergraduate-admissions-events/","Size":"Small","Region":"Mid Atlantic"}},
{"type":"Feature","geometry":{"type":"Point","coordinates":[-79.99517,35.9721829,0]},"properties":{"name":"High Point University","description":"Schedule a visit: http://www.highpoint.edu/admissions/visits/","Size":"Medium","Region":"South"}},
{"type":"Feature","geometry":{"type":"Point","coordinates":[-95.2563969,38.9566132,0]},"properties":{"name":"University of Kansas","description":"Schedule a visit: https://admissions.ku.edu/visiting-campus","Size":"Large","Region":"Midwest"}},
{"type":"Feature","geometry":{"type":"Point","coordinates":[-87.9288671,43.0396179,0]},"properties":{"name":"Marquette University","description":"Schedule a visit: https://www.marquette.edu/explore/visit-marquette.php","Size":"Medium","Region":"Midwest"}},
{"type":"Feature","geometry":{"type":"Point","coordinates":[-81.0938141,32.0691097,0]},"properties":{"name":"The Savannah College of Art and Design","description":"Schedule a visit: https://www.scad.edu/admission/visit-scad","Size":"Medium","Region":"South"}},
{"type":"Feature","geometry":{"type":"Point","coordinates":[-117.8521395,33.7931305,0]},"properties":{"name":"Chapman University","description":"Schedule a visit: https://www.chapman.edu/admission/undergraduate/visit/index.aspx","Size":"Medium","Region":"West"}},
{"type":"Feature","geometry":{"type":"Point","coordinates":[-86.8616608,39.640492,0]},"properties":{"name":"DePauw University","description":"Schedule a visit: https://www.depauw.edu/admission-aid/visit-events/","Size":"Small","Region":"Midwest"}},
{"type":"Feature","geometry":{"type":"Point","coordinates":[-73.6027975,40.7139792,0]},"properties":{"name":"Hofstra University","description":"Schedule a Visit: https://www.hofstra.edu/admission/adm_eventreg.html","Size":"M","Region":"Mid Atlantic"}},
{"type":"Feature","geometry":{"type":"Point","coordinates":[-84.4121327,33.7463942,0]},"properties":{"name":"Spelman College","description":"Schedule a visit: https://www.spelman.edu/admissions/visit-us","Size":"Small","Region":"South"}},
{"type":"Feature","geometry":{"type":"Point","coordinates":[-84.415528,33.7473412,0]},"properties":{"name":"Morehouse College - HBCU","description":"Schedule a visit: https://www.morehouse.edu/admissions/visit.html","Size":"Small","Region":"South"}},
{"type":"Feature","geometry":{"type":"Point","coordinates":[-77.0217229,38.9233228,0]},"properties":{"name":"Howard University (HBCU)","description":"Schedule a Visit: https://www2.howard.edu/contact/visit","Size":"Medium","Region":"Mid Atlantic"}},
{"type":"Feature","geometry":{"type":"Point","coordinates":[-71.5072307,42.9874723,0]},"properties":{"name":"Saint Anselm College","description":"","Size":"","Region":""}},
{"type":"Feature","geometry":{"type":"Point","coordinates":[-71.5071985,42.9874723,0]},"properties":{"name":"Saint Anselm College","description":"Schedule a visit: https://www.anselm.edu/admission-aid/visit","Size":"Small","Region":"New England"}},
{"type":"Feature","geometry":{"type":"Point","coordinates":[-84.1814695,39.74161,0]},"properties":{"name":"University of Dayton","description":"Schedule a visit: https://udayton.edu/apply/visit/index.php","Size":"Medium","Region":"Midwest"}}
]}
